{
  "cities": [
    {
      "name": "Sydney",
      "name_native": "Sydney",
      "country": "Australia",
      "continent": "Australia",
      "latitude": "-33.865143",
      "longitude": "151.209900",
      "population": "5312000",
      "founded": "1788",
      "landmarks": [
        {
          "name": "Sydney Opera House",
          "latitude": "-33.85657945260791",
          "longitude": "151.2152430517662"
        },
        {
          "name": "Sydney Harbour Bridge",
          "latitude": "-33.85184192250029",
          "longitude": "151.21067210101546"
        },
        {
          "name": "Queen Victoria Building",
          "latitude": "-33.8715170884506",
          "longitude": " 151.206718524785"
        }
      ]
    },
    {
      "name": "New York City",
      "name_native": "New York City",
      "country": "USA",
      "continent": "North America",
      "latitude": "40.730610",
      "longitude": "-73.935242",
      "population": "8419000",
      "founded": "1624",
      "landmarks": [
        {

          "name":  "Chrysler Building",
          "latitude": "40.75185647103213",
          "longitude": "-73.97553419047996"

        },
        {
          "name":  "Brooklyn Bridge",
          "latitude": "40.70644367088094",
          "longitude": "-73.99681041525338"
        },
        {
          "name": "Madison Square Garden",
          "latitude": "40.75067515335852",
          "longitude": "-73.99344943280747"

        }
      ]
    },
    {
      "name": "Madrid",
      "name_native": "Madrid",
      "country": "Spain",
      "continent": "Europe",
      "latitude": "40.416775",
      "longitude": "-3.703790",
      "population": "3223000",
      "founded": "1083",
      "landmarks": [
        {
          "name": "Royal Palace",
          "latitude": "40.41808977582546",
          "longitude": "-3.7142851779091925"
        },
        {
          "name":  "Plaza Mayor",
          "latitude": "40.41564132058184",
          "longitude": "-3.707393140750721"
        },
        {
          "name": "Plaza de Cibeles",
          "latitude": "40.41940488939091",
          "longitude": "-3.6930881270072753"
        }
      ]
    },
    {
      "name": "Moscow",
      "name_native": "Москва",
      "country": "Russia",
      "continent": "Europe",
      "latitude": "55.751244",
      "longitude": "37.618423",
      "population": "11920000",
      "founded": "1147",
      "landmarks": [
        {
          "name": "Saint Basil's Cathedral",
          "latitude": "55.7526315541453",
          "longitude": "37.623108254657105"
        },
        {
          "name": "Kremlin",
          "latitude": "55.751129477306755",
          "longitude": "37.6175433104754"
        },
        {
          "name": "Bolshoi Theatre",
          "latitude": "55.760079142882326",
          "longitude": "37.619131394619515"
        }
      ]
    },
    {
      "name": "Tokyo",
      "name_native": "東京",
      "country": "Japan",
      "continent": "Asia",
      "latitude": "35.652832",
      "longitude": "139.839478",
      "population": "13960000",
      "founded": "1603",
      "landmarks": [
        {
          "name": "Meji Shrine",
          "latitude": "35.676615454413195",
          "longitude": "139.6993044380925"
        },
        {
          "name":  "Asakusa",
          "latitude": "35.715440115566345",
          "longitude": "139.79728978536843"
        },
        {
          "name": "Tokyo Skytree",
          "latitude": "35.71023690450384",
          "longitude": "139.81064675158527"
        }
      ]
    },
    {
      "name": "Lagos",
      "name_native": "Lagos",
      "country": "Nigeria",
      "continent": "Africa",
      "latitude": "6.465422",
      "longitude": "3.406448",
      "population": "14800000",
      "founded": "1914",
      "landmarks": [
        {
          "name":  "Iga Idungaran",
          "latitude": "6.466120193273218",
          "longitude": "3.3900042670939383"
        },
        {
          "name":  "Freedom Park",
          "latitude": "6.449117849393515",
          "longitude": "3.3965414220908072"
        },
        {
          "name": "The Cathedral Church of Christ",
          "latitude": "6.450941638050986",
          "longitude": "3.3900433084410104"
        }
      ]
    },
    {
      "name": "Sao Paulo",
      "name_native": "São Paulo",
      "country": "Brazil",
      "continent": "South America",
      "latitude": "-23.533773",
      "longitude": "-46.625290",
      "population": "12330000",
      "founded": "1554",
      "landmarks": [
        {
          "name": "Mosteiro De Sao Bento",
          "latitude": "-23.543670864394276",
          "longitude": "-46.63394509104122"
        },
        {
          "name":  "Italian Building",
          "latitude": "-23.545301638007707",
          "longitude": "-46.643676018023285"
        },
        {
          "name":  "Farol Santander",
          "latitude": "-23.545523773878564",
          "longitude": "-46.634019875696"
        }
      ]
    },
    {
      "name": "Munich",
      "name_native": "München",
      "country": "Germany",
      "continent": "Europe",
      "latitude": "48.137154",
      "longitude": "11.576124",
      "population": "1472000",
      "founded": "1158",
      "landmarks": [
        {
          "name": "Bavaria statue",
          "latitude": "48.13076743973094",
          "longitude": "11.545979640649822"
        },
        {
          "name":  "Marienplatz",
          "latitude": "48.13752204831469",
          "longitude": "11.575437767632373"
        },
        {
          "name":  "ottonova office",
          "latitude": "48.14158380892406",
          "longitude": "11.567902196468912"
        }
      ]
    }
  ]
}